{
    "type": "FeatureCollection",
    "features": [
        {
            "type": "Feature",
            "geometry": { "type": "Point", "coordinates": [13.430981, 52.499811] },
            "properties": {
                "name": "Emmauskirche",
                "log": "20.06.13: Telefonat mit Kuesterei. Rückruf erfolgt in den nächsten Tagen; 03.07.13: Erneuter Anruf jetzt scheint Juli aber ihr Ferienmonat zu sein.",
                "marker-color": "FF8500"
            }
        },
        {
            "type": "Feature",
            "geometry": { "type": "Point", "coordinates": [13.433957, 52.46574 ] },
            "properties": {
                "name": "Philipp-Melanchthon-Kirche",
                "marker-color": "FF8500"
            }
        },
        {
            "type": "Feature",
            "geometry": { "type": "Point", "coordinates": [13.432251, 52.482173 ] },
            "properties": {
                "name": "Klungerkranich (Neukoelln Arkaden Dach)",
                "wiki": "http://wiki.freifunk.net/Berlin:Standorte:Neukoelln_Arkaden",
                "pad": "http://pad.spline.de/ff-arkaden",
                "marker-color": "00FF00"
            }
        },
        {
            "type": "Feature",
            "geometry": { "type": "Point", "coordinates": [13.434986, 52.481447] },
            "properties": {
                "name": "Rathaus Neukölln",
                "wiki": "http://wiki.freifunk.net/Berlin:Standorte:Rathaus_Neukoelln",
                "marker-color": "FF8500"
            }
        },
        {
            "type": "Feature",
            "geometry": { "type": "Point", "coordinates": [13.427995,52.478886] },
            "properties": {
                "name": "Jobcenter Neukölln",
                "note": "Anfrage bei der Verwaltung steht noch aus",
                "marker-color": "FF8500"
            }
        },
        {
            "type": "Feature",
            "geometry": { "type": "Point", "coordinates": [13.441791, 52.472124] },
            "properties": {
                "name": "Magdalenen-Kirche",
                "note": "Durch den Gemeinderat abgelehnt",
                "marker-color": "FF0000"
            }
        },
        {
            "type": "Feature",
            "geometry": { "type": "Point", "coordinates": [13.436081, 52.484318] },
            "properties": {
                "name": "Martin-Luther-Kirche",
                "wiki": "",
                "marker-color": "FF8500"
            }
        },
        {
            "type": "Feature",
            "geometry": { "type": "Point", "coordinates": [13.430403, 52.475535] },
            "properties": {
                "name": "Agoracollective",
                "wiki": "",
                "marker-color": "FF8500"
            }
        },
        {
            "type": "Feature",
            "geometry": { "type": "Point", "coordinates": [13.384871,52.49372] },
            "properties": {
                "name": "Bezirksamt Kreuzberg",
                "wiki": "http://wiki.freifunk.net/Berlin:Standorte:Bezirksamt_Kreuzberg",
                "marker-color": "00FF00"
            }
        },
        {
            "type": "Feature",
            "geometry": { "type": "LineString", "coordinates": [[13.384871,52.49372],[13.432251, 52.482173]] },
            "properties": {
                "line-color": "00FF00"
            }
        },
        {
            "type": "Feature",
            "geometry": { "type": "Point", "coordinates": [13.411956,52.536097] },
            "properties": {
                "name": "Segenskirche",
                "wiki": "http://wiki.freifunk.net/Berlin:Standorte:Segenskirche",
                "marker-color": "00FF00"
            }
        },
        {
            "type": "Feature",
            "geometry": { "type": "Point", "coordinates": [13.422605,52.540593] },
            "properties": {
                "name": "Eliaskirche",
                "wiki": "http://wiki.freifunk.net/Berlin:Standorte:Eliaskirche",
                "marker-color": "00FF00"
            }
        },
        {
            "type": "Feature",
            "geometry": { "type": "LineString", "coordinates": [[13.422605,52.540593], [13.411956,52.536097]] },
            "properties": {
                "line-color": "00FF00"
            }
        },
        {
            "type": "Feature",
            "geometry": { "type": "Point", "coordinates": [13.466175,52.513722] },
            "properties": {
                "name": "Kinzigstrasse 9",
                "wiki": "http://wiki.freifunk.net/Freifunk_Berlin_K9",
                "marker-color": "00FF00"
            }
        },
        {
            "type": "Feature",
            "geometry": { "type": "Point", "coordinates": [13.366798,52.49177] },
            "properties": {
                "name": "Mansteinstrasse 9",
                "wiki": "http://wiki.freifunk.net/Berlin:Standorte:Manstein10",
                "marker-color": "FF8500"
            }
        }
    ]
}
