{
    "type": "FeatureCollection",
    "features": [
        {
            "type": "Feature",
            "geometry": { "type": "Point", "coordinates": [13.430981, 52.499811] },
            "properties": {
                "name": "Emmauskirche",
                "log": "20.06.13: Telefonat mit Kuesterei. Rückruf erfolgt in den nächsten Tagen; 03.07.13: Erneuter Anruf jetzt scheint Juli aber ihr Ferienmonat zu sein.",
                "marker-color": "FF8500"
            }
        },
        {
            "type": "Feature",
            "geometry": { "type": "Point", "coordinates": [13.433957, 52.46574 ] },
            "properties": {
                "name": "Philipp-Melanchthon-Kirche",
                "marker-color": "FF8500"
            }
        },
        {
            "type": "Feature",
            "geometry": { "type": "Point", "coordinates": [13.432251, 52.482173 ] },
            "properties": {
                "name": "Klungerkranich (Neukoelln Arkaden Dach)",
                "wiki": "http://wiki.freifunk.net/Berlin:Standorte:Neukoelln_Arkaden",
                "pad": "http://pad.spline.de/ff-arkaden",
                "marker-color": "00FF00"
            }
        },
        {
            "type": "Feature",
            "geometry": { "type": "Point", "coordinates": [13.434986, 52.481447] },
            "properties": {
                "name": "Rathaus Neukölln",
                "wiki": "http://wiki.freifunk.net/Berlin:Standorte:Rathaus_Neukoelln",
                "marker-color": "FF8500"
            }
        },
        {
            "type": "Feature",
            "geometry": { "type": "Point", "coordinates": [13.443658, 52.463906] },
            "properties": {
                "name": "Karl-Marx-Straße 282",
                "note": "Dach marode und muss erst renoviert werden; erneute Anfrage bzgl Stand 26.06.2013 - warten auf Antwort",
                "marker-color": "FF8500"
            }
        },
        {
            "type": "Feature",
            "geometry": { "type": "Point", "coordinates": [13.427995,52.478886] },
            "properties": {
                "name": "Jobcenter Neukölln",
                "note": "Anfrage bei der Verwaltung steht noch aus",
                "marker-color": "FF8500"
            }
        },
        {
            "type": "Feature",
            "geometry": { "type": "Point", "coordinates": [13.441791, 52.472124] },
            "properties": {
                "name": "Magdalenen-Kirche",
                "note": "Durch den Gemeinderat abgelehnt",
                "marker-color": "FF0000"
            }
        },
        {
            "type": "Feature",
            "geometry": { "type": "Point", "coordinates": [13.428484, 52.479716] },
            "properties": {
                "name": "Laidak",
                "note": "Freedom Fighter Box (Anon-VPN)",
                "wiki": "http://wiki.freifunk.net/Freifunk_freedom_fighter_box",
                "marker-color": "8B008B"
            }
        },
        {
            "type": "Feature",
            "geometry": { "type": "Point", "coordinates": [13.436081, 52.484318] },
            "properties": {
                "name": "Martin-Luther-Kirche",
                "wiki": "",
                "marker-color": "FF8500"
            }
        },
        {
            "type": "Feature",
            "geometry": { "type": "Point", "coordinates": [13.446326,52.470773] },
            "properties": {
                "name": "Braunschweiger Straße 53-55",
                "marker-color": "FF0000"
            }
        },
        {
            "type": "Feature",
            "geometry": { "type": "Point", "coordinates": [13.430403, 52.475535] },
            "properties": {
                "name": "Agoracollective",
                "wiki": "",
                "marker-color": "FF8500"
            }
        },
        {
            "type": "Feature",
            "geometry": { "type": "Point", "coordinates": [13.451213,52.473704] },
            "properties": {
                "name": "B-Lage",
                "note": "Freedom Fighter Box (Anon-VPN)",
                "wiki": "http://wiki.freifunk.net/Freifunk_freedom_fighter_box",
                "marker-color": "8B008B"
            }
        },
        {
            "type": "Feature",
            "geometry": { "type": "LineString", "coordinates": [[13.384871,52.49372],[13.432251, 52.482173]] },
            "properties": {
                "marker-color": "FF0000"
            }
        }
    ]
}
